stop_id,stop_name,stop_desc,stop_lat,stop_lon,stop_url,location_type,parent_station,wheelchair_boarding
n9073_1,南小学校前,すそのーる,35.15615111,138.9053972,,0,n9073,0
n9039_1,富沢中,すそのーる,35.16641667,138.9013166,,0,n9039,0
n9043_2,富沢南,すそのーる,35.16103056,138.8992461,,0,n9043,0
n9047_2,伊水橋,すそのーる,35.15406111,138.9034889,,0,n9047,0
n6147_2,平松,すそのーる,35.1673474,138.9068143,,0,n6147,0
n7201_1,町田下,すそのーる,35.19082306,138.918075,,0,n7201,0
n9049_2,道上,すそのーる,35.1710178,138.9200933,,0,n9049,0
n6137,麦塚口,すそのーる,35.15914273,138.9075748,,1,,0
n7153_1,裾野東中学校入口,すそのーる,35.177598,138.920265,,0,n7153,0
n7227_1,南堀下,すそのーる,35.19431694,138.9221028,,0,n7227,0
n9051_1,三菱アルミ,すそのーる,35.16444722,138.9084169,,0,n9051,0
n6139,麦塚,すそのーる,35.16584991,138.9145149,,1,,0
n7175,鈴原入口,すそのーる,35.17392306,138.9237061,,1,,0
n6147,平松,すそのーる,35.16742963,138.9069496,,1,,0
n9065_2,御宿上谷,すそのーる,35.20083333,138.907775,,0,n9065,0
n7195_4,裾野市民体育館前,すそのーる,35.17949694,138.9129489,,0,n7195,0
n7153,裾野東中学校入口,すそのーる,35.178025,138.9201969,,1,,0
n9031,裾野郵便局前,すそのーる,35.18020952,138.9112164,,1,,0
n9043,富沢南,すそのーる,35.16098067,138.8992823,,1,,0
n9073,南小学校前,すそのーる,35.15618922,138.9054445,,1,,0
n6863_2,桃園,すそのーる,35.17113611,138.9022061,,0,n6863,0
n6171_1,裾野市民文化センター,すそのーる,35.19803611,138.9138944,,0,n6171,0
n9069_1,福祉保健会館前,すそのーる,35.19531944,138.9111631,,0,n9069,0
n9067_2,御宿八幡宮前,すそのーる,35.20053111,138.9108731,,0,n9067,0
n7191,市立鈴木図書館入口,すそのーる,35.1759379,138.9101275,,1,,0
n6153,裾野二本松,すそのーる,35.17353928,138.9057695,,1,,0
n9061,富岡中学校グランド入口,すそのーる,35.19797177,138.9038584,,1,,0
n9047_1,伊水橋,すそのーる,35.15395111,138.9034889,,0,n9047,0
n9031_1,裾野郵便局前,すそのーる,35.18026111,138.9111181,,0,n9031,0
n7005_1,千福,すそのーる,35.19152111,138.9068911,,0,n7005,0
n6145,本茶,すそのーる,35.16845136,138.9173732,,1,,0
n7193,裾野赤十字病院,すそのーる,35.17891653,138.9115753,,1,,0
n9037,富沢上,すそのーる,35.16836724,138.9013244,,1,,0
n7189_1,平松上,すそのーる,35.17401389,138.9091189,,0,n7189,0
n9049_1,道上,すそのーる,35.1712019,138.9200924,,0,n9049,0
n9041_2,富沢,すそのーる,35.16481111,138.9001769,,0,n9041,0
n6725_2,水窪,すそのーる,35.15524694,138.9019469,,0,n6725,0
n6143_2,三菱前,すそのーる,35.16371111,138.9073181,,0,n6143,0
n7205_1,和市,すそのーる,35.19527389,138.9188231,,0,n7205,0
n7199_2,久根,すそのーる,35.18778194,138.9166261,,0,n7199,0
n6139_1,麦塚,すそのーる,35.16587389,138.9145969,,0,n6139,0
n6141_1,奥平松,すそのーる,35.1650217,138.9116153,,0,n6141,0
n6145_2,本茶,すそのーる,35.1684403,138.9174658,,0,n6145,0
n9049,道上,すそのーる,35.17120193,138.9200924,,1,,0
n9045,新愛鷹橋,すそのーる,35.15691656,138.9001402,,1,,0
n7205,和市,すそのーる,35.19535521,138.9186427,,1,,0
n6153_1,裾野二本松,すそのーる,35.17346194,138.9057311,,0,n6153,0
n7189,平松上,すそのーる,35.17397034,138.9092114,,1,,0
n7149,稲荷,すそのーる,35.17870055,138.9154981,,1,,0
n7177_2,鈴原,すそのーる,35.174675,138.9247589,,0,n7177,0
n9043_1,富沢南,すそのーる,35.16103056,138.8992823,,0,n9043,0
n9059_1,御宿平山湧水,すそのーる,35.19642306,138.9071361,,0,n9059,0
n7227_2,南堀下,すそのーる,35.19437389,138.9222111,,0,n7227,0
n7179,県営茶畑団地西,すそのーる,35.17586086,138.9264474,,1,,0
n9059,御宿平山湧水,すそのーる,35.19644512,138.9071348,,1,,0
n7151_1,公文名公民館前,すそのーる,35.1785395,138.918119,,0,n7151,0
n6153_3,裾野二本松,すそのーる,35.173001,138.906446,,0,n6153,0
n9061_2,富岡中学校グランド入口,すそのーる,35.19804444,138.9037333,,0,n9061,0
n9051_2,三菱アルミ,すそのーる,35.1643839,138.9082927,,0,n9051,0
n9063,富岡中学校前,すそのーる,35.20016211,138.9029717,,1,,0
n7187,青葉台団地,すそのーる,35.1798619,138.9346917,,1,,0
n9041_1,富沢,すそのーる,35.16481111,138.9001386,,0,n9041,0
n7203_1,町田,すそのーる,35.19285278,138.9181211,,0,n7203,0
n7203_2,町田,すそのーる,35.19262694,138.9182131,,0,n7203,0
n6139_2,麦塚,すそのーる,35.1657459,138.9146223,,0,n6139,0
n6863,桃園,すそのーる,35.17112156,138.9022816,,1,,0
n9041,富沢,すそのーる,35.16483514,138.9001386,,1,,0
n9047,伊水橋,すそのーる,35.15395705,138.9034733,,1,,0
n9055,中央公園前,すそのーる,35.18480372,138.9042407,,1,,0
n9071,町田東,すそのーる,35.19275466,138.9214316,,1,,0
n7153_2,裾野東中学校入口,すそのーる,35.178052,138.920197,,0,n7153,0
n7137_1,裾野駅,すそのーる,35.17197389,138.9093781,,0,n7137,0
n6157_2,佐野,すそのーる,35.1805741,138.9063104,,0,n6157,0
n9045_2,新愛鷹橋,すそのーる,35.156802,138.900347,,0,n9045,0
n6137_2,麦塚口,すそのーる,35.15913806,138.9074556,,0,n6137,0
n7017_1,御宿,すそのーる,35.20147694,138.9046472,,0,n7017,0
n9045_1,新愛鷹橋,すそのーる,35.156967,138.900114,,0,n9045,0
n9055_1,中央公園前,すそのーる,35.18468889,138.9043269,,0,n9055,0
n7187_1,青葉台団地,すそのーる,35.17996194,138.9346917,,0,n7187,0
n7181_2,県営茶畑団地,すそのーる,35.17621389,138.9274139,,0,n7181,0
n7179_2,県営茶畑団地西,すそのーる,35.17555278,138.9259489,,0,n7179,0
n7191_2,市立鈴木図書館入口,すそのーる,35.17595306,138.9101411,,0,n7191,0
n7181_1,県営茶畑団地,すそのーる,35.17641389,138.9274139,,0,n7181,0
n9037_1,富沢上,すそのーる,35.16835806,138.9013044,,0,n9037,0
n9053_1,大畑橋,すそのーる,35.18128889,138.9036111,,0,n9053,0
n6151_2,裾野駅入口,すそのーる,35.17265889,138.9070969,,0,n6151,0
n9071_2,町田東,すそのーる,35.19274444,138.9214472,,0,n9071,0
n7181,県営茶畑団地,すそのーる,35.1763139,138.9274139,,1,,0
n6725,水窪,すそのーる,35.15480527,138.9016228,,1,,0
n7195_2,裾野市民体育館前,すそのーる,35.1791029,138.9132625,,0,n7195,0
n7191_1,市立鈴木図書館入口,すそのーる,35.17595306,138.9100411,,0,n7191,0
n7149_1,稲荷,すそのーる,35.17888889,138.9148411,,0,n7149,0
n6147_1,平松,すそのーる,35.16746111,138.9069528,,0,n6147,0
n9031_2,裾野郵便局前,すそのーる,35.18016111,138.9111181,,0,n9031,0
n6149_2,佐野原,すそのーる,35.16941389,138.9071194,,0,n6149,0
n6145_1,本茶,すそのーる,35.16846111,138.9173431,,0,n6145,0
n6141_2,奥平松,すそのーる,35.16496306,138.9116819,,0,n6141,0
n9039,富沢中,すそのーる,35.16642,138.9013191,,1,,0
n7139_1,峰下入口,すそのーる,35.17262306,138.9084537,,0,n7139,0
n9033_1,裾野高校入口,すそのーる,35.18096389,138.9087981,,0,n9033,0
n9033_2,裾野高校入口,すそのーる,35.18088389,138.9087981,,0,n9033,0
n9037_2,富沢上,すそのーる,35.16845694,138.9016111,,0,n9037,0
n9053_2,大畑橋,すそのーる,35.18138111,138.9035639,,0,n9053,0
n7017_2,御宿,すそのーる,35.20144306,138.9048167,,0,n7017,0
n6141,奥平松,すそのーる,35.1650217,138.9116153,,1,,0
n9067_1,御宿八幡宮前,すそのーる,35.20045889,138.9108581,,0,n9067,0
n7201_2,町田下,すそのーる,35.19082306,138.9181061,,0,n7201,0
n6157,佐野,すそのーる,35.18073333,138.9061431,,1,,0
n7005,千福,すそのーる,35.19227576,138.9073673,,1,,0
n7183_2,青葉台団地入口,すそのーる,35.17808194,138.9304661,,0,n7183,0
n7193_2,裾野赤十字病院,すそのーる,35.17891306,138.9115139,,0,n7193,0
n7177_1,鈴原,すそのーる,35.17511389,138.9251111,,0,n7177,0
n6155_1,裾野西小学校入口,すそのーる,35.17681111,138.9068139,,0,n6155,0
n9055_2,中央公園前,すそのーる,35.18484444,138.9042661,,0,n9055,0
n7177,鈴原,すそのーる,35.17511389,138.9251111,,1,,0
n9035,花園橋,すそのーる,35.17236183,138.9030164,,1,,0
n6151_1,裾野駅入口,すそのーる,35.17185278,138.9081569,,0,n6151,0
n9069_2,福祉保健会館前,すそのーる,35.19541667,138.9111181,,0,n9069,0
n7197_2,公文名,すそのーる,35.18318611,138.9142911,,0,n7197,0
n7139,峰下入口,すそのーる,35.17261635,138.9085158,,1,,0
n7179_1,県営茶畑団地西,すそのーる,35.17588889,138.9264369,,0,n7179,0
n9039_2,富沢中,すそのーる,35.16641667,138.9016081,,0,n9039,0
n7151,公文名公民館前,すそのーる,35.17841984,138.9186086,,1,,0
n7185,青葉台団地中,すそのーる,35.1790948,138.9328364,,1,,0
n7197,公文名,すそのーる,35.18318501,138.9142523,,1,,0
n6169,裾野市営プール前,すそのーる,35.19617457,138.9135758,,1,,0
n7157_2,向田小学校前,すそのーる,35.17273306,138.9209889,,0,n7157,0
n7139_2,峰下入口,すそのーる,35.17262306,138.9085539,,0,n7139,0
n7157_1,向田小学校前,すそのーる,35.17291306,138.9215861,,0,n7157,0
n6137_1,麦塚口,すそのーる,35.15913806,138.9075856,,0,n6137,0
n7195_3,裾野市民体育館前,すそのーる,35.17961389,138.9128419,,0,n7195,0
n7005_2,千福,すそのーる,35.19226667,138.9073489,,0,n7005,0
n9053,大畑橋,すそのーる,35.18132155,138.9035569,,1,,0
n7175_2,鈴原入口,すそのーる,35.17341111,138.9232181,,0,n7175,0
n6153_2,裾野二本松,すそのーる,35.17280611,138.9057917,,0,n6153,0
n9035_2,花園橋,すそのーる,35.17238889,138.9030306,,0,n9035,0
n9063_1,富岡中学校前,すそのーる,35.20011389,138.9030461,,0,n9063,0
n6143,三菱前,すそのーる,35.16414634,138.9074674,,1,,0
n7017,御宿,すそのーる,35.20146302,138.9048228,,1,,0
n9065,御宿上谷,すそのーる,35.20086526,138.9077207,,1,,0
n9067,御宿八幡宮前,すそのーる,35.20053378,138.9108937,,1,,0
n7149_2,稲荷,すそのーる,35.17869889,138.9154661,,0,n7149,0
n7199_1,久根,すそのーる,35.18770194,138.9165806,,0,n7199,0
n9071_1,町田東,すそのーる,35.19276111,138.9214333,,0,n9071,0
n7137,裾野駅,すそのーる,35.1720107,138.9093513,,1,,0
n7195_1,裾野市民体育館前,すそのーる,35.17912694,138.9132231,,0,n7195,0
n6725_1,水窪,すそのーる,35.15476611,138.9015811,,0,n6725,0
n6863_1,桃園,すそのーる,35.17113611,138.9022861,,0,n6863,0
n9057_1,千福下,すそのーる,35.18638889,138.9025731,,0,n9057,0
n9057_2,千福下,すそのーる,35.18656194,138.9024972,,0,n9057,0
n7227,南堀下,すそのーる,35.19438566,138.9222157,,1,,0
n7151_2,公文名公民館前,すそのーる,35.17839806,138.9186111,,0,n7151,0
n7189_2,平松上,すそのーる,35.17401389,138.9092189,,0,n7189,0
n7175_1,鈴原入口,すそのーる,35.17392306,138.9237061,,0,n7175,0
n6149_1,佐野原,すそのーる,35.16990694,138.9073181,,0,n6149,0
n6169_1,裾野市営プール前,すそのーる,35.19611389,138.9135889,,0,n6169,0
n9061_1,富岡中学校グランド入口,すそのーる,35.19796389,138.9039917,,0,n9061,0
n6149,佐野原,すそのーる,35.1698837,138.9073407,,1,,0
n9057,千福下,すそのーる,35.1864685,138.902491,,1,,0
n7009,御宿下,すそのーる,35.19501875,138.9079738,,1,,0
n7199,久根,すそのーる,35.18780368,138.916598,,1,,0
n7185_2,青葉台団地中,すそのーる,35.17894194,138.9326694,,0,n7185,0
n6155_2,裾野西小学校入口,すそのーる,35.17626944,138.9068306,,0,n6155,0
n7197_1,公文名,すそのーる,35.18321944,138.9141944,,0,n7197,0
n9065_1,御宿上谷,すそのーる,35.200825,138.9077444,,0,n9065,0
n9033,裾野高校入口,すそのーる,35.18094655,138.9088444,,1,,0
n6171,裾野市民文化センター,すそのーる,35.19808702,138.9139095,,1,,0
n6157_1,佐野,すそのーる,35.18073333,138.9061431,,0,n6157,0
n7201,町田下,すそのーる,35.1908488,138.9181036,,1,,0
n7193_1,裾野赤十字病院,すそのーる,35.1789165,138.9115753,,0,n7193,0
n9035_1,花園橋,すそのーる,35.1723618,138.9030306,,0,n9035,0
n7009_2,御宿下,すそのーる,35.19508056,138.9080056,,0,n7009,0
n7205_2,和市,すそのーる,35.19531306,138.9186711,,0,n7205,0
n7183_1,青葉台団地入口,すそのーる,35.1780952,138.930423,,0,n7183,0
n6143_1,三菱前,すそのーる,35.16416389,138.9074511,,0,n6143,0
n9063_2,富岡中学校前,すそのーる,35.20023056,138.9029539,,0,n9063,0
n7195,裾野市民体育館前,すそのーる,35.17958297,138.9128999,,1,,0
n7157,向田小学校前,すそのーる,35.17291306,138.9215861,,1,,0
n7185_1,青葉台団地中,すそのーる,35.17914194,138.9327694,,0,n7185,0
n6169_2,裾野市営プール前,すそのーる,35.19573611,138.9136661,,0,n6169,0
n7009_1,御宿下,すそのーる,35.19573333,138.9082339,,0,n7009,0
n9059_2,御宿平山湧水,すそのーる,35.19645306,138.9071389,,0,n9059,0
n9051,三菱アルミ,すそのーる,35.1644625,138.9084072,,1,,0
n7183,青葉台団地入口,すそのーる,35.17809517,138.930423,,1,,0
n9069,福祉保健会館前,すそのーる,35.19542431,138.9110696,,1,,0
n9073_2,南小学校前,すそのーる,35.1562579,138.905356,,0,n9073,0
n6155,裾野西小学校入口,すそのーる,35.17681978,138.9067532,,1,,0
n6151,裾野駅入口,すそのーる,35.17265136,138.9071273,,1,,0
n7203,町田,すそのーる,35.19251891,138.9182281,,1,,0
